[{"name":"Eric Adams","lastName":"Adams","shortName":"adams","email":"eadams@senate.state.ny.us","additionalContact":"","imageUrl":"http://www.nysenate.gov/files/profile-pictures/(02-04-09) Adams-HS-059NEW HEADSHOT_1.JPG","url":"http://www.nysenate.gov/senator/eric-adams","partyAffiliations":["D","WF"],"offices":[{"name":"Albany Office","street":"188 State Street","city":"Albany","postalCode":"12247","provinceName":"New York","province":"NY","countryName":"United States","country":"us","phone":"(518) 455-2431","fax":"(518) 426-6856","otherPhone":"","additional":"Legislative Office Building, Room 608","latitude":42.652855,"longitude":-73.759091},{"name":"District Office","street":"1669 Bedford Avenue","city":"Brooklyn","postalCode":"11225","provinceName":"New York","province":"NY","countryName":"United States","country":"us","phone":"(718) 284-4700","fax":"(718) 282-3585","otherPhone":"","additional":"2nd Floor","latitude":40.665842,"longitude":-73.956483}],"district":{"number":20,"url":"http://www.nysenate.gov/district/20","imageUrl":"http://www.nysenate.gov/files/sd20.jpg","mapUrl":"http://geo.nysenate.gov/maps/regular.jsp?x=850&y=595&sd=20"},"social":{"twitter":"http://twitter.com/NYSSenAdams","youtube":"","myspace":"","picasa":"","flickr":"","facebook":"http://www.facebook.com/pages/New-York-State-Senator-Eric-Adams/80559174013"}},{"name":"Joseph P. Addabbo Jr","lastName":"Addabbo","shortName":"addabbo","email":"addabbo@senate.state.ny.us","additionalContact":"","imageUrl":"http://www.nysenate.gov/files/profile-pictures/Addabbo.SD15.jpg","url":"http://www.nysenate.gov/senator/joseph-p-addabbo-jr","partyAffiliations":["D"],"offices":[{"name":"Albany Office","street":"188 State Street","city":"Albany","postalCode":"12247","provinceName":"New York","province":"NY","countryName":"United States","country":"us","phone":"(518) 455-2322","fax":"(518) 426-6875","otherPhone":"","additional":"Room 613, Legislative Office Building","latitude":42.652855,"longitude":-73.759091},{"name":"District Office","street":"159-53 102nd Street","city":"Howard Beach","postalCode":"11414","provinceName":"New York","province":"NY","countryName":"United States","country":"us","phone":"(718) 738-1111","fax":"(718) 322-5760","otherPhone":"","additional":"","latitude":40.658888,"longitude":-73.830945},{"name":"Satellite Office","street":"66-85 73rd Place","city":"Middle Village","postalCode":"11379","provinceName":"New York","province":"NY","countryName":"United States","country":"us","phone":"(718) 497-1630","fax":"(718) 497-1761","otherPhone":"","additional":"","latitude":40.712905,"longitude":-73.879421}],"district":{"number":15,"url":"http://www.nysenate.gov/district/15","imageUrl":"http://www.nysenate.gov/files/sd15.jpg","mapUrl":"http://geo.nysenate.gov/maps/regular.jsp?x=850&y=595&sd=15"},"social":{"twitter":"","youtube":"","myspace":"","picasa":"","flickr":"","facebook":"http://www.facebook.com/pages/Senator-Joe-Addabbo/157310354545?ref=search&sid=567176665.3736433734..1"}},{"name":"Tony Avella","lastName":"Avella","shortName":"avella","email":"avella@nysenate.gov","additionalContact":"","imageUrl":"http://www.nysenate.gov/files/profile-pictures/Avella Website Photo.jpg","url":"http://www.nysenate.gov/senator/tony-avella","partyAffiliations":["D"],"offices":[{"name":"District Office","street":"38-50 Bell Boulevard","city":"Bayside","postalCode":"11361","provinceName":"New York","province":"NY","countryName":"United States","country":"us","phone":"718-357-3094","fax":"718-357-3491","otherPhone":"","additional":"Suite C","latitude":40.765282,"longitude":-73.77224},{"name":"Albany Office","street":"Room 504, LOB","city":"Albany","postalCode":"12247","provinceName":"New York","province":"NY","countryName":"United States","country":"us","phone":"518-455-2210","fax":"518-426-6736","otherPhone":"","additional":"","latitude":42.694803,"longitude":-73.850052}],"district":{"number":11,"url":"http://www.nysenate.gov/district/11","imageUrl":"http://www.nysenate.gov/files/SD11.png","mapUrl":"http://geo.nysenate.gov/maps/regular.jsp?x=850&y=595&sd=11"},"social":{"twitter":"","youtube":"","myspace":"","picasa":"","flickr":"","facebook":"http://www.facebook.com/tonyavellaforNewYork"}},{"name":"Greg Ball","lastName":"Ball","shortName":"ball","email":"gball@nysenate.gov","additionalContact":"","imageUrl":"http://www.nysenate.gov/files/profile-pictures/ball_HS2.jpg","url":"http://www.nysenate.gov/senator/greg-ball","partyAffiliations":["R","C"],"offices":[{"name":"District Office","street":"1441 Route 22","city":"Brewster","postalCode":"10509","provinceName":"New York","province":"NY","countryName":"United States","country":"us","phone":"(845) 279-3773","fax":"(845) 279-7156","otherPhone":"","additional":"Suite 205","latitude":41.420128,"longitude":-73.577044},{"name":"Albany Office","street":"817 Legislative Office Building","city":"Albany","postalCode":"12247","provinceName":"New York","province":"NY","countryName":"United States","country":"us","phone":"(518) 455-3111","fax":"(518) 426-6977","otherPhone":"","additional":"Empire State Plaza","latitude":42.652442,"longitude":-73.759332}],"district":{"number":40,"url":"http://www.nysenate.gov/district/40","imageUrl":"http://www.nysenate.gov/files/district_40.png","mapUrl":"http://geo.nysenate.gov/maps/regular.jsp?x=850&y=595&sd=40"},"social":{"twitter":"","youtube":"","myspace":"","picasa":"","flickr":"","facebook":""}},{"name":"John J. Bonacic","lastName":"Bonacic","shortName":"bonacic","email":"bonacic@nysenate.gov","additionalContact":"","imageUrl":"http://www.nysenate.gov/files/profile-pictures/(03-06-06) 09  HS Bonacic-HS-007-ret-5x7.JPG","url":"http://www.nysenate.gov/senator/john-j-bonacic","partyAffiliations":["R","C","IP"],"offices":[{"name":"Albany Office","street":"188 State Street","city":"Albany","postalCode":"12247","provinceName":"New York","province":"NY","countryName":"United States","country":"us","phone":"(518) 455-3181","fax":"","otherPhone":"","additional":"Room 509 Legislative Office Building","latitude":42.652855,"longitude":-73.759091},{"name":"District Office","street":"201 Dolson Avenue","city":"Middletown","postalCode":"10940","provinceName":"New York","province":"NY","countryName":"United States","country":"us","phone":"(845) 344-3311","fax":"","otherPhone":"","additional":"Suite F","latitude":41.428226,"longitude":-74.426096},{"name":"District Office 2","street":"111 Main Street","city":"Delhi","postalCode":"13753","provinceName":"New York","province":"NY","countryName":"United States","country":"us","phone":"(607) 746-6675","fax":"","otherPhone":"","additional":"","latitude":42.277134,"longitude":-74.915271}],"district":{"number":42,"url":"http://www.nysenate.gov/district/42","imageUrl":"http://www.nysenate.gov/files/district_42.png","mapUrl":"http://geo.nysenate.gov/maps/regular.jsp?x=850&y=595&sd=42"},"social":{"twitter":"twitter.com/JohnBonacic","youtube":"","myspace":"","picasa":"","flickr":"","facebook":"facebook.com/JohnBonacic"}},{"name":"Phil Boyle","lastName":"Boyle","shortName":"boyle","email":"pboyle@nysenate.gov","additionalContact":"","imageUrl":"http://www.nysenate.gov/files/profile-pictures/AAA_0628.jpeg","url":"http://www.nysenate.gov/senator/philip-boyle","partyAffiliations":["R"],"offices":[{"name":"District Office","street":"23 Argyle Square","city":"Babylon","postalCode":"11702","provinceName":"New York","province":"NY","countryName":"United States","country":"us","phone":"(631) 669-9200","fax":"","otherPhone":"","additional":"","latitude":40.696561,"longitude":-73.327826},{"name":"Albany Office","street":"814 Legislative Office Building","city":"Albany","postalCode":"12247","provinceName":"New York","province":"NY","countryName":"United States","country":"us","phone":"(518) 455-3411","fax":"","otherPhone":"","additional":"","latitude":42.652442,"longitude":-73.759332}],"district":{"number":4,"url":"http://www.nysenate.gov/district/04","imageUrl":"http://www.nysenate.gov/files/sd4.jpg","mapUrl":"http://geo.nysenate.gov/maps/regular.jsp?x=850&y=595&sd=04"},"social":{"twitter":"http://twitter.com/PhilBoyleNY","youtube":"","myspace":"","picasa":"","flickr":"","facebook":"http://www.facebook.com/philboyleNY"}},{"name":"Neil D. Breslin","lastName":"Breslin","shortName":"breslin","email":"breslin@senate.state.ny.us","additionalContact":"","imageUrl":"http://www.nysenate.gov/files/profile-pictures/Breslin202009.jpg","url":"http://www.nysenate.gov/senator/neil-d-breslin","partyAffiliations":["D","IP","WF"],"offices":[{"name":"Albany Office","street":"172 State Street","city":"Albany","postalCode":"12247","provinceName":"New York","province":"NY","countryName":"United States","country":"us","phone":"(518) 455-2225","fax":"","otherPhone":"","additional":"Room 414, Capitol","latitude":42.652228,"longitude":-73.757982},{"name":"","street":"","city":"","postalCode":"","provinceName":"","province":"","countryName":"United States","country":"us","phone":"","fax":"","otherPhone":"","additional":"","latitude":0.0,"longitude":0.0}],"district":{"number":44,"url":"http://www.nysenate.gov/district/44","imageUrl":"http://www.nysenate.gov/files/district_44.png","mapUrl":"http://geo.nysenate.gov/maps/regular.jsp?x=850&y=595&sd=44"},"social":{"twitter":"","youtube":"","myspace":"","picasa":"","flickr":"","facebook":"http://www.facebook.com/pages/Senator-Neil-D-Breslin/168918816484213"}},{"name":"David Carlucci","lastName":"Carlucci","shortName":"carlucci","email":"carlucci@nysenate.gov","additionalContact":"<p>&nbsp;</p> <p>&nbsp;</p>","imageUrl":"http://www.nysenate.gov/files/profile-pictures/(12-07-10) Carlucci-HS-028.jpg","url":"http://www.nysenate.gov/senator/david-carlucci","partyAffiliations":["D"],"offices":[{"name":"District Office","street":"95 South Middletown Road","city":"Nanuet","postalCode":"10954","provinceName":"New York","province":"NY","countryName":"United States","country":"us","phone":"845-623-3627","fax":"845-624-0424","otherPhone":"","additional":"","latitude":41.093429,"longitude":-74.012686},{"name":"Albany Office","street":"181 State Street,","city":"Albany","postalCode":"12247","provinceName":"New York","province":"NY","countryName":"United States","country":"us","phone":"518-455-2991","fax":"518-426-6737","otherPhone":"","additional":"815 Legislative Office Building","latitude":42.652855,"longitude":-73.75903}],"district":{"number":38,"url":"http://www.nysenate.gov/district/38","imageUrl":"http://www.nysenate.gov/files/district_38.png","mapUrl":"http://geo.nysenate.gov/maps/regular.jsp?x=850&y=595&sd=38"},"social":{"twitter":"http://twitter.com/davidcarlucci","youtube":"","myspace":"","picasa":"","flickr":"","facebook":"http://www.facebook.com/davecarlucci"}},{"name":"John A. DeFrancisco","lastName":"DeFrancisco","shortName":"defrancisco","email":"jdefranc@nysenate.gov","additionalContact":"","imageUrl":"http://www.nysenate.gov/files/profile-pictures/SD50_Defrancisco.jpg","url":"http://www.nysenate.gov/senator/john-defrancisco","partyAffiliations":["R","C","I"],"offices":[{"name":"Albany Office","street":"416 Capitol","city":"Albany","postalCode":"12247","provinceName":"New York","province":"NY","countryName":"United States","country":"us","phone":"(518) 455-3511","fax":"","otherPhone":"","additional":"","latitude":42.654507,"longitude":-73.780244},{"name":"District Office","street":"333 East Washington Street","city":"Syracuse","postalCode":"13202","provinceName":"New York","province":"NY","countryName":"United States","country":"us","phone":"(315) 428-7632","fax":"","otherPhone":"","additional":"800 State Office Building","latitude":43.049535,"longitude":-76.148372}],"district":{"number":50,"url":"http://www.nysenate.gov/district/50","imageUrl":"http://www.nysenate.gov/files/district_50.png","mapUrl":"http://geo.nysenate.gov/maps/regular.jsp?x=850&y=595&sd=50"},"social":{"twitter":"http://twitter.com/JohnDeFrancisco","youtube":"","myspace":"","picasa":"","flickr":"","facebook":"http://www.facebook.com/pages/Senator-John-A-DeFrancisco/8776617150"}},{"name":"Ruben Diaz","lastName":"Diaz","shortName":"diaz","email":"diaz@senate.state.ny.us","additionalContact":"","imageUrl":"http://www.nysenate.gov/files/profile-pictures/Diaz-HS-2009.jpg","url":"http://www.nysenate.gov/senator/ruben-diaz","partyAffiliations":["D"],"offices":[{"name":"Albany Office","street":"188 State Street","city":"Albany","postalCode":"12247","provinceName":"New York","province":"NY","countryName":"United States","country":"us","phone":"(518) 455-2511","fax":"(518) 426-6945","otherPhone":"","additional":"Room 606, Legislative Office Building","latitude":42.652855,"longitude":-73.759091},{"name":"District Office","street":"900 Rogers Place","city":"Bronx","postalCode":"10459","provinceName":"New York","province":"NY","countryName":"United States","country":"us","phone":"(718) 991-3161","fax":"(718) 991-0309","otherPhone":"","additional":"","latitude":40.820703,"longitude":-73.897831}],"district":{"number":32,"url":"http://www.nysenate.gov/district/32","imageUrl":"http://www.nysenate.gov/files/Untitled-32.jpg","mapUrl":"http://geo.nysenate.gov/maps/regular.jsp?x=850&y=595&sd=32"},"social":{"twitter":"","youtube":"","myspace":"","picasa":"","flickr":"","facebook":"http://www.facebook.com/Rev.Ruben.Diaz"}},{"name":"Martin Malav√© Dilan","lastName":"Dilan","shortName":"dilan","email":"dilan@nysenate.gov","additionalContact":"","imageUrl":"http://www.nysenate.gov/files/profile-pictures/(05-16-12) Dilan-HS-005.jpg","url":"http://www.nysenate.gov/senator/martin-malave-dilan","partyAffiliations":["D"],"offices":[{"name":"Albany Office","street":"188 State Street","city":"Albany","postalCode":"12247","provinceName":"New York","province":"NY","countryName":"United States","country":"us","phone":"(518) 455-2177","fax":"(518) 426-6947","otherPhone":"","additional":"Room 711B, Legislative Office Building","latitude":42.652894,"longitude":-73.759161},{"name":"District Office","street":"786 Knickerbocker Avenue","city":"Brooklyn","postalCode":"11207","provinceName":"New York","province":"NY","countryName":"United States","country":"us","phone":"(718) 573-1726","fax":"(718) 573-2407","otherPhone":"","additional":"","latitude":40.692665,"longitude":-73.908129}],"district":{"number":18,"url":"http://www.nysenate.gov/district/18","imageUrl":"http://www.nysenate.gov/files/sd18.jpg","mapUrl":"http://geo.nysenate.gov/maps/regular.jsp?x=850&y=595&sd=18"},"social":{"twitter":"http://twitter.com/SenatorDilan","youtube":"http://www.youtube.com/user/SenMMDilan","myspace":"","picasa":"","flickr":"","facebook":"http://www.facebook.com/pages/Martin-Malave-Dilan/80483802077"}},{"name":"Adriano Espaillat","lastName":"Espaillat","shortName":"espaillat","email":"espailla@nysenate.gov","additionalContact":"<P>&nbsp;</P>\n<P>&nbsp;</P>","imageUrl":"http://www.nysenate.gov/files/profile-pictures/Adriano Espaillat Headshot.JPG","url":"http://www.nysenate.gov/senator/adriano-espaillat","partyAffiliations":["D","WF"],"offices":[{"name":"District Office","street":"5030 Broadway","city":"New York","postalCode":"10034","provinceName":"New York","province":"NY","countryName":"United States","country":"us","phone":"(212) 544-0173","fax":"(212) 544-0256","otherPhone":"","additional":"","latitude":40.869129,"longitude":-73.917094},{"name":"Albany Office","street":"LOB Room 513","city":"Albany","postalCode":"12247","provinceName":"New York","province":"NY","countryName":"United States","country":"us","phone":"518-455-2041","fax":"518-426-6847","otherPhone":"","additional":"","latitude":42.694803,"longitude":-73.850052},{"name":"Satellite Office (TUESDAY ONLY)","street":"563 Columbus Avenue","city":"New York","postalCode":"10024","provinceName":"New York","province":"NY","countryName":"United States","country":"us","phone":"347-994-8351","fax":"","otherPhone":"","additional":"at 87th Street","latitude":40.787341,"longitude":-73.971529}],"district":{"number":31,"url":"http://www.nysenate.gov/district/31","imageUrl":"http://www.nysenate.gov/files/Untitled-31.jpg","mapUrl":"http://geo.nysenate.gov/maps/regular.jsp?x=850&y=595&sd=31"},"social":{"twitter":"http://twitter.com/Adriano4Senate","youtube":"http://www.youtube.com/user/AdrianoEspaillat","myspace":"","picasa":"","flickr":"","facebook":"http://www.facebook.com/assemblymanadrianoespaillat"}},{"name":"Hugh T. Farley","lastName":"Farley","shortName":"farley","email":"Farley@nysenate.gov","additionalContact":"","imageUrl":"http://www.nysenate.gov/files/profile-pictures/SD44_Farley.jpg","url":"http://www.nysenate.gov/senator/hugh-t-farley","partyAffiliations":["R"],"offices":[{"name":"Albany Office","street":"188 State Street","city":"Albany","postalCode":"12247","provinceName":"New York","province":"NY","countryName":"United States","country":"us","phone":"(518) 455-2181","fax":"(518) 455-2271","otherPhone":"","additional":"Room 711, Legislative Office Building","latitude":42.652855,"longitude":-73.759091},{"name":"District Office","street":"2430 Riverfront Center","city":"Amsterdam","postalCode":"12010","provinceName":"New York","province":"NY","countryName":"United States","country":"us","phone":"(518) 843-2188","fax":"(518) 843-8363","otherPhone":"","additional":"","latitude":42.936701,"longitude":-74.189727},{"name":"District Office 2","street":"33-41 East Main Street","city":"Johnstown","postalCode":"12095","provinceName":"New York","province":"NY","countryName":"United States","country":"us","phone":"(518) 762-3733","fax":"(518) 762-3721","otherPhone":"","additional":"City Hall","latitude":43.007144,"longitude":-74.37005}],"district":{"number":49,"url":"http://www.nysenate.gov/district/49","imageUrl":"http://www.nysenate.gov/files/district_49.png","mapUrl":"http://geo.nysenate.gov/maps/regular.jsp?x=850&y=595&sd=49"},"social":{"twitter":"","youtube":"","myspace":"","picasa":"","flickr":"","facebook":""}},{"name":"Simcha Felder","lastName":"Felder","shortName":"felder","email":"felder@nysenate.gov","additionalContact":"","imageUrl":"http://www.nysenate.gov/files/profile-pictures/Felder-HS-012_web.jpg","url":"http://www.nysenate.gov/senator/simcha-felder","partyAffiliations":["D"],"offices":[{"name":"District Office","street":"1412 Avenue J Suite 2E","city":"Brooklyn","postalCode":"11230","provinceName":"New York","province":"NY","countryName":"United States","country":"us","phone":"","fax":"","otherPhone":"","additional":"","latitude":40.625017,"longitude":-73.961914},{"name":"Albany Office","street":"944 Legislative Office Building","city":"Albany","postalCode":"12247","provinceName":"New York","province":"NY","countryName":"United States","country":"us","phone":"(518) 455-2754","fax":"(518) 426-6931","otherPhone":"","additional":"","latitude":42.652442,"longitude":-73.759332}],"district":{"number":17,"url":"http://www.nysenate.gov/district/17","imageUrl":"http://www.nysenate.gov/files/Screen Shot 2013-01-22 at 4.19.17 PM.png","mapUrl":"http://geo.nysenate.gov/maps/regular.jsp?x=850&y=595&sd=17"},"social":{"twitter":"","youtube":"","myspace":"","picasa":"","flickr":"","facebook":""}},{"name":"John J. Flanagan","lastName":"Flanagan","shortName":"flanagan","email":"flanagan@nysenate.gov","additionalContact":"","imageUrl":"http://www.nysenate.gov/files/profile-pictures/flanaganheadshot2_0.jpg","url":"http://www.nysenate.gov/senator/john-j-flanagan","partyAffiliations":["R","C","IP"],"offices":[{"name":"District Office","street":"260 Middle Country Road","city":"Smithtown","postalCode":"11787","provinceName":"New York","province":"NY","countryName":"United States","country":"us","phone":"631-361-2154","fax":"631-361-5367","otherPhone":"","additional":"Suite 102","latitude":40.855448,"longitude":-73.179697},{"name":"Albany Office","street":"Room 805 Legislative Office Building","city":"Albany","postalCode":"12247","provinceName":"New York","province":"NY","countryName":"United States","country":"us","phone":"518-455-2071","fax":"518-426-6904","otherPhone":"","additional":"","latitude":42.652442,"longitude":-73.759332}],"district":{"number":2,"url":"http://www.nysenate.gov/district/02","imageUrl":"http://www.nysenate.gov/files/sd2.jpg","mapUrl":"http://geo.nysenate.gov/maps/regular.jsp?x=850&y=595&sd=02"},"social":{"twitter":"","youtube":"http://www.youtube.com/user/senatorflanagan","myspace":"","picasa":"","flickr":"","facebook":""}},{"name":"Charles J. Fuschillo Jr.","lastName":"Fuschillo","shortName":"fuschillo","email":"fuschill@nysenate.gov","additionalContact":"","imageUrl":"http://www.nysenate.gov/files/profile-pictures/Senator_Fuschillo's_Headshot-2011_retouch[1].jpg","url":"http://www.nysenate.gov/senator/charles-j-fuschillo-jr","partyAffiliations":["R"],"offices":[{"name":"Albany Office","street":"188 State Street","city":"Albany","postalCode":"12247","provinceName":"New York","province":"NY","countryName":"United States","country":"us","phone":"518-455-3341","fax":"","otherPhone":"","additional":"Room 609, Legislative Office Building","latitude":42.652855,"longitude":-73.759091},{"name":"District Office","street":"5550 Merrick Road","city":"Massapequa","postalCode":"11758-6238","provinceName":"New York","province":"NY","countryName":"United States","country":"us","phone":"516-882-0630","fax":"516-882-0636","otherPhone":"","additional":"Suite 205","latitude":40.668929,"longitude":-73.432602}],"district":{"number":8,"url":"http://www.nysenate.gov/district/08","imageUrl":"http://www.nysenate.gov/files/SD8.png","mapUrl":"http://geo.nysenate.gov/maps/regular.jsp?x=850&y=595&sd=08"},"social":{"twitter":"http://www.twitter.com/senfuschillo","youtube":"","myspace":"","picasa":"","flickr":"","facebook":"http://www.facebook.com/senatorfuschillo"}},{"name":"Patrick M. Gallivan","lastName":"Gallivan","shortName":"gallivan","email":"gallivan@nysenate.gov","additionalContact":"","imageUrl":"http://www.nysenate.gov/files/profile-pictures/(01-10-11) Gallivan-HS-007.jpg","url":"http://www.nysenate.gov/senator/pat-gallivan","partyAffiliations":["R","C","IP"],"offices":[{"name":"District Office","street":"2721 Transit Road","city":"Elma","postalCode":"14059","provinceName":"New York","province":"NY","countryName":"United States","country":"us","phone":"716-656-8544","fax":"716-656-8961","otherPhone":"","additional":"Suite 116","latitude":42.83849,"longitude":-78.696875},{"name":"Albany Office","street":"947 LOB","city":"Albany","postalCode":"12247","provinceName":"New York","province":"NY","countryName":"United States","country":"us","phone":"518-455-3471","fax":"518-426-6949","otherPhone":"","additional":"","latitude":42.649979,"longitude":-73.754275},{"name":"Satellite Office","street":"143 North Main Street","city":"Warsaw","postalCode":"14569","provinceName":"New York","province":"NY","countryName":"United States","country":"us","phone":"585-786-5048","fax":"585-786-2187","otherPhone":"","additional":"Room 103","latitude":42.743199,"longitude":-78.133219},{"name":"Satellite Office","street":"Livingston County Government Center","city":"Geneseo","postalCode":"14454","provinceName":"New York","province":"NY","countryName":"United States","country":"us","phone":"585-243-6929","fax":"","otherPhone":"","additional":"6 Court Street, Rm 304","latitude":42.795896,"longitude":-77.816947}],"district":{"number":59,"url":"http://www.nysenate.gov/district/59","imageUrl":"http://www.nysenate.gov/files/district_59.png","mapUrl":"http://geo.nysenate.gov/maps/regular.jsp?x=850&y=595&sd=59"},"social":{"twitter":"http://twitter.com/senatorgallivan","youtube":"http://www.youtube.com/user/senatorgallivan","myspace":"","picasa":"https://picasaweb.google.com/111927126039020796805","flickr":"","facebook":"http://www.facebook.com/Senatorgallivan?ref=hl"}},{"name":"Michael Gianaris","lastName":"Gianaris","shortName":"gianaris","email":"gianaris@nysenate.gov","additionalContact":"","imageUrl":"http://www.nysenate.gov/files/profile-pictures/Giannaris.jpg","url":"http://www.nysenate.gov/senator/michael-gianaris","partyAffiliations":["D"],"offices":[{"name":"District Office","street":"21-77 31st Street","city":"Astoria","postalCode":"11105","provinceName":"New York","province":"NY","countryName":"United States","country":"us","phone":"718-728-0960","fax":"718-728-0963","otherPhone":"","additional":"","latitude":40.776247,"longitude":-73.910328},{"name":"Albany Office","street":"Senate Capitol Building,","city":"Albany","postalCode":"12247","provinceName":"New York","province":"NY","countryName":"United States","country":"us","phone":"518-455-3486","fax":"518-426-6929","otherPhone":"","additional":"Room 413","latitude":42.65,"longitude":-73.76}],"district":{"number":12,"url":"http://www.nysenate.gov/district/12","imageUrl":"http://www.nysenate.gov/files/Screen Shot 2013-01-02 at 3.20.37 PM.png","mapUrl":"http://geo.nysenate.gov/maps/regular.jsp?x=850&y=595&sd=12"},"social":{"twitter":"","youtube":"","myspace":"","picasa":"","flickr":"","facebook":""}},{"name":"Terry Gipson","lastName":"Gipson","shortName":"gipson","email":"gipson@nysenate.gov","additionalContact":"","imageUrl":"http://www.nysenate.gov/files/profile-pictures/(12-10-12) Gipson-HS-010.jpg","url":"http://www.nysenate.gov/senator/terry-gipson","partyAffiliations":["D"],"offices":[{"name":"Albany Office","street":"Legislative Office Building,","city":"Albany","postalCode":"12247","provinceName":"New York","province":"NY","countryName":"United States","country":"us","phone":"1-518-455-2303","fax":"","otherPhone":"","additional":"Room 617","latitude":42.652442,"longitude":-73.759332},{"name":"District Office","street":"3 Neptune Road,","city":"Poughkeepsie","postalCode":"12601","provinceName":"New York","province":"NY","countryName":"United States","country":"us","phone":"1-845-463-0840","fax":"","otherPhone":"","additional":"Suite A19B","latitude":41.643548,"longitude":-73.923131}],"district":{"number":41,"url":"http://www.nysenate.gov/district/41","imageUrl":"http://www.nysenate.gov/files/district_41.png","mapUrl":"http://geo.nysenate.gov/maps/regular.jsp?x=850&y=595&sd=41"},"social":{"twitter":"https://twitter.com/TerryGipsonNY","youtube":"","myspace":"","picasa":"","flickr":"","facebook":"https://www.facebook.com/TerryGipsonNY"}},{"name":"Martin J. Golden","lastName":"Golden","shortName":"golden","email":"golden@nysenate.gov","additionalContact":"","imageUrl":"http://www.nysenate.gov/files/profile-pictures/SD22_Golden.jpg","url":"http://www.nysenate.gov/senator/martin-j-golden","partyAffiliations":["R","C"],"offices":[{"name":"Albany Office","street":"188 State Street","city":"Albany","postalCode":"12247","provinceName":"New York","province":"NY","countryName":"United States","country":"us","phone":"(518) 455-2730","fax":"","otherPhone":"","additional":"Room 409, Legislative Office Building","latitude":42.652855,"longitude":-73.759091},{"name":"District Office","street":"7408 5th Avenue","city":"Brooklyn","postalCode":"11209","provinceName":"New York","province":"NY","countryName":"United States","country":"us","phone":"(718) 238-6044","fax":"(718) 238-6170","otherPhone":"","additional":"1st Floor","latitude":40.630138,"longitude":-74.022734},{"name":"Satellite Office","street":"3604 Quentin Road","city":"Brooklyn","postalCode":"11234","provinceName":"New York","province":"NY","countryName":"United States","country":"us","phone":"","fax":"","otherPhone":"","additional":"","latitude":40.614592,"longitude":-73.936422}],"district":{"number":22,"url":"http://www.nysenate.gov/district/22","imageUrl":"http://www.nysenate.gov/files/sd22.jpg","mapUrl":"http://geo.nysenate.gov/maps/regular.jsp?x=850&y=595&sd=22"},"social":{"twitter":"http://twitter.com/senmartygolden","youtube":"","myspace":"","picasa":"","flickr":"","facebook":"http://www.facebook.com/pages/Martin-J-Golden/29214902523"}},{"name":"Joseph A. Griffo","lastName":"Griffo","shortName":"griffo","email":"griffo@nysenate.gov","additionalContact":"","imageUrl":"http://www.nysenate.gov/files/profile-pictures/SD47_Griffo.jpg","url":"http://www.nysenate.gov/senator/joseph-griffo","partyAffiliations":["R","C","IP"],"offices":[{"name":"Albany Office","street":"188 State Street","city":"Albany","postalCode":"12247","provinceName":"New York","province":"NY","countryName":"United States","country":"us","phone":"(518) 455-3334","fax":"(518) 426-6921","otherPhone":"","additional":"Room 612, Legislative Office Building","latitude":42.652855,"longitude":-73.759091},{"name":"District Office","street":"207 Genesee Street","city":"Utica","postalCode":"13501","provinceName":"New York","province":"NY","countryName":"United States","country":"us","phone":"(315) 793-9072","fax":"(315) 793-0298","otherPhone":"(800) 226-1558","additional":"Room 408","latitude":43.101049,"longitude":-75.231918}],"district":{"number":47,"url":"http://www.nysenate.gov/district/47","imageUrl":"http://www.nysenate.gov/files/district_47.png","mapUrl":"http://geo.nysenate.gov/maps/regular.jsp?x=850&y=595&sd=47"},"social":{"twitter":"","youtube":"","myspace":"","picasa":"","flickr":"","facebook":""}},{"name":"Mark Grisanti","lastName":"Grisanti","shortName":"grisanti","email":"grisanti@nysenate.gov","additionalContact":"<P>&nbsp;</P>\n<P><SPAN style=\"TEXT-DECORATION: underline\"><STRONG>Buffalo</STRONG></SPAN></P>\n<P><STRONG></STRONG>Walter J. Mahoney Building<BR>65 Court Street<BR>Room 213<BR>Buffalo, NY 14202<BR>Phone: 716-854-8705<BR>Fax: 716-854-3051<BR>E-mail: <A href=\"mailto:wny.grisanti@gmail.com\">wny.grisanti@gmail.com</A></P>\n<P><STRONG>Office Hours</STRONG>:<BR>Monday-Friday 8:30am-5:00pm</P>","imageUrl":"http://www.nysenate.gov/files/profile-pictures/Grisanti.jpg","url":"http://www.nysenate.gov/senator/mark-grisanti","partyAffiliations":["R","IP"],"offices":[{"name":"Albany Office","street":"Room 902 Legislative Office Building","city":"Albany","postalCode":"12247","provinceName":"New York","province":"NY","countryName":"United States","country":"us","phone":"518-455-3240","fax":"518-426-6738","otherPhone":"","additional":"","latitude":42.652442,"longitude":-73.759332},{"name":"Buffalo Office","street":"65 Court Street","city":"Buffalo","postalCode":"14202","provinceName":"New York","province":"NY","countryName":"United States","country":"us","phone":"716-854-8705","fax":"716-854-3051","otherPhone":"","additional":"Room 213","latitude":42.886548,"longitude":-78.876876},{"name":"","street":"","city":"","postalCode":"","provinceName":"","province":"","countryName":"United States","country":"us","phone":"","fax":"","otherPhone":"","additional":"","latitude":0.0,"longitude":0.0},{"name":"","street":"","city":"","postalCode":"","provinceName":"","province":"","countryName":"United States","country":"us","phone":"","fax":"","otherPhone":"","additional":"","latitude":0.0,"longitude":0.0}],"district":{"number":60,"url":"http://www.nysenate.gov/district/60","imageUrl":"http://www.nysenate.gov/files/district_60.png","mapUrl":"http://geo.nysenate.gov/maps/regular.jsp?x=850&y=595&sd=60"},"social":{"twitter":"http://twitter.com/senatorgrisanti","youtube":"http://www.youtube.com/results?search_query=senator+mark+grisanti&aq=f","myspace":"","picasa":"","flickr":"","facebook":"http://www.facebook.com/SenatorGrisanti"}},{"name":"Kemp Hannon","lastName":"Hannon","shortName":"hannon","email":"hannon@nysenate.gov","additionalContact":"","imageUrl":"http://www.nysenate.gov/files/profile-pictures/Kemp head shot 2.JPG","url":"http://www.nysenate.gov/senator/kemp-hannon","partyAffiliations":["R","C","IP"],"offices":[{"name":"Albany Office","street":"The Capitol","city":"Albany","postalCode":"12247","provinceName":"New York","province":"NY","countryName":"United States","country":"us","phone":"518-455-2200","fax":"","otherPhone":"","additional":"Room 420","latitude":42.65,"longitude":-73.76},{"name":"District Office","street":"595 Stewart Ave.","city":"Garden City","postalCode":"11530","provinceName":"New York","province":"NY","countryName":"United States","country":"us","phone":"516-739-1700","fax":"","otherPhone":"","additional":"Suite, 540","latitude":40.731445,"longitude":-73.611528}],"district":{"number":6,"url":"http://www.nysenate.gov/district/06","imageUrl":"http://www.nysenate.gov/files/sd6.png","mapUrl":"http://geo.nysenate.gov/maps/regular.jsp?x=850&y=595&sd=06"},"social":{"twitter":"http://twitter.com/kemphannon","youtube":"http://www.youtube.com/senatorhannon","myspace":"","picasa":"","flickr":"","facebook":"http://www.facebook.com/kemp.hannon"}},{"name":"Ruth Hassell-Thompson","lastName":"Hassell-Thompson","shortName":"hassellthompson","email":"hassellt@senate.state.ny.us","additionalContact":"","imageUrl":"http://www.nysenate.gov/files/profile-pictures/WebBio Hassell-ThompsonHS.jpg","url":"http://www.nysenate.gov/senator/ruth-hassell-thompson","partyAffiliations":["D","WF"],"offices":[{"name":"Albany Office","street":"188 State Street","city":"Albany","postalCode":"12247","provinceName":"New York","province":"NY","countryName":"United States","country":"us","phone":"(518) 455-2061","fax":"(518) 426-6998","otherPhone":"","additional":"Room 707 Legislative Office Building","latitude":42.652855,"longitude":-73.759091},{"name":"District Office","street":"959 E. 233rd Street","city":"Bronx","postalCode":"10466","provinceName":"New York","province":"NY","countryName":"United States","country":"us","phone":"(718) 547-8854","fax":"(718) 515-2718","otherPhone":"","additional":"","latitude":40.891138,"longitude":-73.849565},{"name":"District Office 2","street":"250 South 6th Avenue","city":"Mount Vernon","postalCode":"10550","provinceName":"New York","province":"NY","countryName":"United States","country":"us","phone":"(914) 665-2400","fax":"","otherPhone":"","additional":"Doles Center","latitude":40.902361,"longitude":-73.837385}],"district":{"number":36,"url":"http://www.nysenate.gov/district/36","imageUrl":"http://www.nysenate.gov/files/Screen Shot 2013-01-02 at 4.02.03 PM.png","mapUrl":"http://geo.nysenate.gov/maps/regular.jsp?x=850&y=595&sd=36"},"social":{"twitter":"","youtube":"","myspace":"","picasa":"","flickr":"","facebook":""}},{"name":"Brad Hoylman","lastName":"Hoylman","shortName":"hoylman","email":"hoylman@nysenate.gov","additionalContact":"<p>Please send invitations to in-district events or requests for in-district meetings to: schedule@bradhoylman.com.</p><p>Please send invitations to Albany events or requests for Albany meetings to: hoylmanrequest@gmail.com.</p><p>Please direct media inquiries to jared@bradhoylman.com.</p><p>&nbsp;</p>","imageUrl":"http://www.nysenate.gov/files/profile-pictures/(12-10-12) Hoylman-HS-010 RE_0.jpg","url":"http://www.nysenate.gov/senator/brad-hoylman","partyAffiliations":["D"],"offices":[{"name":"District Office","street":"322 Eighth Avenue, Suite 1700","city":"New York","postalCode":"10001","provinceName":"New York","province":"NY","countryName":"United States","country":"us","phone":"(212) 633-8052","fax":"(212) 633-8096","otherPhone":"","additional":"","latitude":40.747105,"longitude":-73.99664},{"name":"Albany Office","street":"Room 413, Legislative Office Building","city":"Albany","postalCode":"12247","provinceName":"New York","province":"NY","countryName":"United States","country":"us","phone":"(518) 455-2451","fax":"(518) 426-6846","otherPhone":"","additional":"","latitude":42.652442,"longitude":-73.759332}],"district":{"number":27,"url":"http://www.nysenate.gov/district/27","imageUrl":"http://www.nysenate.gov/files/Untitled-27.jpg","mapUrl":"http://geo.nysenate.gov/maps/regular.jsp?x=850&y=595&sd=27"},"social":{"twitter":"","youtube":"","myspace":"","picasa":"","flickr":"","facebook":""}},{"name":"Timothy M. Kennedy","lastName":"Kennedy","shortName":"kennedy","email":"kennedy@nysenate.gov","additionalContact":"<p>&nbsp;</p> <p>&nbsp;</p>","imageUrl":"http://www.nysenate.gov/files/profile-pictures/Senator Kennedy headshot.jpg","url":"http://www.nysenate.gov/senator/timothy-kennedy","partyAffiliations":["D","IP","WF"],"offices":[{"name":"Albany Office","street":"Legislative Office Building, Room 506","city":"Albany","postalCode":"12247","provinceName":"New York","province":"NY","countryName":"United States","country":"us","phone":"518-455-2426","fax":"518-426-6851","otherPhone":"","additional":"","latitude":42.652442,"longitude":-73.759332},{"name":"District Office","street":"2239 South Park Ave.","city":"Buffalo","postalCode":"14220","provinceName":"New York","province":"NY","countryName":"United States","country":"us","phone":"716-826-2683","fax":"716-826-2793","otherPhone":"","additional":"","latitude":42.837456,"longitude":-78.823839}],"district":{"number":63,"url":"http://www.nysenate.gov/district/63","imageUrl":"http://www.nysenate.gov/files/district_63.png","mapUrl":"http://geo.nysenate.gov/maps/regular.jsp?x=850&y=595&sd=63"},"social":{"twitter":"http://twitter.com/senkennedy","youtube":"http://www.youtube.com/senatortimkennedy","myspace":"","picasa":"","flickr":"","facebook":"http://www.facebook.com/pages/Senator-Timothy-M-Kennedy/181461761878773?v=info"}},{"name":"Jeffrey D. Klein","lastName":"Klein","shortName":"klein","email":"jdklein@senate.state.ny.us","additionalContact":"","imageUrl":"http://www.nysenate.gov/files/profile-pictures/JK formal headshot.JPG","url":"http://www.nysenate.gov/senator/jeffrey-d-klein","partyAffiliations":["D"],"offices":[{"name":"Albany Office","street":"Legislative Office Building, Room 913","city":"Albany","postalCode":"12247","provinceName":"New York","province":"NY","countryName":"United States","country":"us","phone":"518-455-3595","fax":"","otherPhone":"","additional":"","latitude":42.652442,"longitude":-73.759332},{"name":"District Office","street":"1250 Waters Place, Suite 1202","city":"Bronx","postalCode":"10461","provinceName":"New York","province":"NY","countryName":"United States","country":"us","phone":"(718) 822-2049","fax":"(718) 822-2321","otherPhone":"(800) 718-2039","additional":"","latitude":40.846444,"longitude":-73.842866}],"district":{"number":34,"url":"http://www.nysenate.gov/district/34","imageUrl":"http://www.nysenate.gov/files/Untitled-34.jpg","mapUrl":"http://geo.nysenate.gov/maps/regular.jsp?x=850&y=595&sd=34"},"social":{"twitter":"http://twitter.com/JeffKleinNY","youtube":"","myspace":"","picasa":"","flickr":"","facebook":"http://www.facebook.com/jeffrey.d.klein"}},{"name":"Liz Krueger","lastName":"Krueger","shortName":"krueger","email":"lkrueger@senate.state.ny.us","additionalContact":"","imageUrl":"http://www.nysenate.gov/files/profile-pictures/Senate Headshot.jpg","url":"http://www.nysenate.gov/senator/liz-krueger","partyAffiliations":["D","WF"],"offices":[{"name":"Albany Office","street":"172 State Street","city":"Albany","postalCode":"12247","provinceName":"New York","province":"NY","countryName":"United States","country":"us","phone":"(518) 455-2297","fax":"(518) 426-6874","otherPhone":"","additional":"Room 905 Legislative Office Building","latitude":42.652134,"longitude":-73.757823},{"name":"District Office","street":"211 East 43rd Street","city":"New York","postalCode":"10017","provinceName":"New York","province":"NY","countryName":"United States","country":"us","phone":"(212) 490-9535","fax":"(212) 490-2151","otherPhone":"","additional":"Suite 401","latitude":40.751091,"longitude":-73.97285}],"district":{"number":28,"url":"http://www.nysenate.gov/district/28","imageUrl":"http://www.nysenate.gov/files/Untitled-28.jpg","mapUrl":"http://geo.nysenate.gov/maps/regular.jsp?x=850&y=595&sd=28"},"social":{"twitter":"","youtube":"","myspace":"","picasa":"","flickr":"","facebook":""}},{"name":"Andrew J Lanza","lastName":"Lanza","shortName":"lanza","email":"lanza@senate.state.ny.us","additionalContact":"","imageUrl":"http://www.nysenate.gov/files/profile-pictures/headshotweb.jpg","url":"http://www.nysenate.gov/senator/andrew-j-lanza","partyAffiliations":["R"],"offices":[{"name":"Albany Office","street":"188 State Street","city":"Albany","postalCode":"12247","provinceName":"New York","province":"NY","countryName":"United States","country":"us","phone":"(518) 455-3215","fax":"(518) 426-6852","otherPhone":"","additional":"Room 915, Legislative Office Building","latitude":42.652855,"longitude":-73.759091},{"name":"District Office","street":"3845 Richmond Ave. Suite 2A","city":"Staten Island","postalCode":"10312","provinceName":"New York","province":"NY","countryName":"United States","country":"us","phone":"(718) 984-4073","fax":"(718) 984-4455","otherPhone":"","additional":"","latitude":40.544119,"longitude":-74.164874}],"district":{"number":24,"url":"http://www.nysenate.gov/district/24","imageUrl":"http://www.nysenate.gov/files/sd24_0.jpg","mapUrl":"http://geo.nysenate.gov/maps/regular.jsp?x=850&y=595&sd=24"},"social":{"twitter":"","youtube":"","myspace":"","picasa":"","flickr":"","facebook":"http://www.facebook.com/pages/Andrew-J-Lanza/45298833298"}},{"name":"William J. Larkin Jr.","lastName":"Larkin","shortName":"larkin","email":"larkin@senate.state.ny.us","additionalContact":"","imageUrl":"http://www.nysenate.gov/files/profile-pictures/Larkin-HS.jpg","url":"http://www.nysenate.gov/senator/william-j-larkin-jr","partyAffiliations":["R","C"],"offices":[{"name":"Albany Office","street":"188 State Street","city":"Albany","postalCode":"12247","provinceName":"New York","province":"NY","countryName":"United States","country":"us","phone":"(518) 455-2770","fax":"","otherPhone":"","additional":"Room 502, Senate Capitol Building","latitude":42.652855,"longitude":-73.759091},{"name":"District Office","street":"1093 Little Britain Road","city":"New Windsor","postalCode":"12553","provinceName":"New York","province":"NY","countryName":"United States","country":"us","phone":"(845) 567-1270","fax":"","otherPhone":"","additional":"","latitude":41.483552,"longitude":-74.097905}],"district":{"number":39,"url":"http://www.nysenate.gov/district/39","imageUrl":"http://www.nysenate.gov/files/district_39.png","mapUrl":"http://geo.nysenate.gov/maps/regular.jsp?x=850&y=595&sd=39"},"social":{"twitter":"","youtube":"","myspace":"","picasa":"","flickr":"","facebook":"http://www.facebook.com/pages/Senator-Bill-Larkin/310849198950423"}},{"name":"George Latimer","lastName":"Latimer","shortName":"latimer","email":"latimer@nysenate.gov","additionalContact":"","imageUrl":"http://www.nysenate.gov/files/profile-pictures/GL_2_0.jpg","url":"http://www.nysenate.gov/senator/george-s-latimer","partyAffiliations":["D"],"offices":[{"name":"Interim District Office","street":"222 Grace Church Street","city":"Port Chester","postalCode":"10573","provinceName":"New York","province":"NY","countryName":"United States","country":"us","phone":"(914) 934-5250","fax":"(914) 934-5256","otherPhone":"","additional":"","latitude":40.989802,"longitude":-73.667049},{"name":"Albany Office","street":"615 Legislative Office Building","city":"Albany","postalCode":"12247","provinceName":"New York","province":"NY","countryName":"United States","country":"us","phone":"(518) 455-2031","fax":"(518) 426-6860","otherPhone":"","additional":"","latitude":42.652442,"longitude":-73.759332}],"district":{"number":37,"url":"http://www.nysenate.gov/district/37","imageUrl":"http://www.nysenate.gov/files/district_37.png","mapUrl":"http://geo.nysenate.gov/maps/regular.jsp?x=850&y=595&sd=37"},"social":{"twitter":"https://twitter.com/GeorgeLatimer37","youtube":"","myspace":"","picasa":"","flickr":"","facebook":""}},{"name":"Kenneth P. LaValle","lastName":"LaValle","shortName":"lavalle","email":"lavalle@nysenate.gov","additionalContact":"","imageUrl":"http://www.nysenate.gov/files/profile-pictures/NewHeadShotLavalle2.jpg","url":"http://www.nysenate.gov/senator/kenneth-p-lavalle","partyAffiliations":["R","C","IP"],"offices":[{"name":"Albany Office","street":"188 State Street","city":"Albany","postalCode":"12247","provinceName":"New York","province":"NY","countryName":"United States","country":"us","phone":"(518) 455-3121","fax":"","otherPhone":"","additional":"Room 806, Legislative Office Building","latitude":42.652855,"longitude":-73.759091},{"name":"District Office","street":"28 North Country Rd","city":"Mount Sinai","postalCode":"11766","provinceName":"New York","province":"NY","countryName":"United States","country":"us","phone":"(631) 473-1461","fax":"(631) 473-1513","otherPhone":"","additional":"Suite 203","latitude":40.938617,"longitude":-73.035149}],"district":{"number":1,"url":"http://www.nysenate.gov/district/01","imageUrl":"http://www.nysenate.gov/files/sd1_1.jpg","mapUrl":"http://geo.nysenate.gov/maps/regular.jsp?x=850&y=595&sd=01"},"social":{"twitter":"http://twitter.com/senatorlavalle","youtube":"http://www.youtube.com/user/KPLSenate","myspace":"","picasa":"","flickr":"","facebook":"https://www.facebook.com/kenneth.p.lavalle"}},{"name":"Tom Libous","lastName":"Libous","shortName":"libous","email":"senator@senatorlibous.com","additionalContact":"<P><A href=\"http://www.senatorlibous.tel\">www.senatorlibous.tel</A></P>","imageUrl":"http://www.nysenate.gov/files/profile-pictures/headshot[1][1].JPG","url":"http://www.nysenate.gov/senator/tom-libous","partyAffiliations":["R","C","IP"],"offices":[{"name":"Albany Office","street":"429 Capitol","city":"Albany","postalCode":"12247","provinceName":"New York","province":"NY","countryName":"United States","country":"us","phone":"(518) 455-2677","fax":"","otherPhone":"","additional":"","latitude":42.654507,"longitude":-73.780244},{"name":"District Office","street":"44 Hawley St Rm 1607","city":"Binghamton","postalCode":"13901","provinceName":"New York","province":"NY","countryName":"United States","country":"us","phone":"(877) 854-2687","fax":"","otherPhone":"","additional":"","latitude":42.098687,"longitude":-75.917974}],"district":{"number":52,"url":"http://www.nysenate.gov/district/52","imageUrl":"http://www.nysenate.gov/files/district_52.png","mapUrl":"http://geo.nysenate.gov/maps/regular.jsp?x=850&y=595&sd=52"},"social":{"twitter":"","youtube":"","myspace":"","picasa":"","flickr":"","facebook":"http://www.facebook.com/libous"}},{"name":"Betty Little","lastName":"Little","shortName":"little","email":"little@nysenate.gov","additionalContact":"","imageUrl":"http://www.nysenate.gov/files/profile-pictures/24x7@300dpi.jpg","url":"http://www.nysenate.gov/senator/elizabeth-little","partyAffiliations":["R","C","IP"],"offices":[{"name":"Albany Office","street":"188 State Street","city":"Albany","postalCode":"12247","provinceName":"New York","province":"NY","countryName":"United States","country":"us","phone":"(518) 455-2811","fax":"","otherPhone":"","additional":"Room 310, Legislative Office Building","latitude":42.652855,"longitude":-73.759091},{"name":"District Office","street":"5 Warren Street","city":"Glens Falls","postalCode":"12801","provinceName":"New York","province":"NY","countryName":"United States","country":"us","phone":"(518) 743-0968","fax":"","otherPhone":"","additional":"Suite 3","latitude":43.309494,"longitude":-73.64264},{"name":"District Office 2","street":"137 Margaret Street","city":"Plattsburgh","postalCode":"12901","provinceName":"New York","province":"NY","countryName":"United States","country":"us","phone":"(518) 561-2430","fax":"","otherPhone":"","additional":"Suite 100","latitude":44.698907,"longitude":-73.454085}],"district":{"number":45,"url":"http://www.nysenate.gov/district/45","imageUrl":"http://www.nysenate.gov/files/district_45.png","mapUrl":"http://geo.nysenate.gov/maps/regular.jsp?x=850&y=595&sd=45"},"social":{"twitter":"","youtube":"","myspace":"","picasa":"","flickr":"","facebook":""}},{"name":"Carl L Marcellino","lastName":"Marcellino","shortName":"marcellino","email":"marcelli@senate.state.ny.us","additionalContact":"","imageUrl":"http://www.nysenate.gov/files/profile-pictures/headshotWEB.jpg","url":"http://www.nysenate.gov/senator/carl-l-marcellino","partyAffiliations":["R"],"offices":[{"name":"Albany Office","street":"188 State Street","city":"Albany","postalCode":"12247","provinceName":"New York","province":"NY","countryName":"United States","country":"us","phone":"(518) 455-2390","fax":"","otherPhone":"","additional":"Room 811, Legislative Office Building","latitude":42.652855,"longitude":-73.759091},{"name":"District Office","street":"250 Townsend Square","city":"Oyster Bay","postalCode":"11771","provinceName":"New York","province":"NY","countryName":"United States","country":"us","phone":"(516) 922-1811","fax":"","otherPhone":"Toll Free: 1-800-332-6977","additional":"","latitude":40.871879,"longitude":-73.530397}],"district":{"number":5,"url":"http://www.nysenate.gov/district/05","imageUrl":"http://www.nysenate.gov/files/sd5.jpg","mapUrl":"http://geo.nysenate.gov/maps/regular.jsp?x=850&y=595&sd=05"},"social":{"twitter":"","youtube":"","myspace":"","picasa":"","flickr":"","facebook":""}},{"name":"Kathleen A. Marchione","lastName":"Marchione","shortName":"marchione","email":"marchione@nysenate.gov","additionalContact":"","imageUrl":"http://www.nysenate.gov/files/profile-pictures/Senator_Kathy_Marchione.jpg","url":"http://www.nysenate.gov/senator/kathleen-a-marchione","partyAffiliations":["R","C"],"offices":[{"name":"Albany Office","street":"188 State Street","city":"Albany","postalCode":"12247","provinceName":"New York","province":"NY","countryName":"United States","country":"us","phone":"(518) 455-2381","fax":"","otherPhone":"","additional":"Legislative Office Building - Room 306","latitude":42.652894,"longitude":-73.759161},{"name":"District Office","street":"2 Halfmoon Town Plaza","city":"Halfmoon","postalCode":"12065","provinceName":"New York","province":"NY","countryName":"United States","country":"us","phone":"","fax":"","otherPhone":"","additional":"","latitude":42.851244,"longitude":-73.699645}],"district":{"number":43,"url":"http://www.nysenate.gov/district/43","imageUrl":"http://www.nysenate.gov/files/district_43.png","mapUrl":"http://geo.nysenate.gov/maps/regular.jsp?x=850&y=595&sd=43"},"social":{"twitter":"","youtube":"","myspace":"","picasa":"","flickr":"","facebook":""}},{"name":"Jack M. Martins","lastName":"Martins","shortName":"martins","email":"martins@nysenate.gov","additionalContact":"","imageUrl":"http://www.nysenate.gov/files/profile-pictures/6-29 Headshot.jpg","url":"http://www.nysenate.gov/senator/jack-m-martins","partyAffiliations":["R"],"offices":[{"name":"Albany Office","street":"Legislative Office Building, Room 946","city":"Albany","postalCode":"12247","provinceName":"New York","province":"NY","countryName":"United States","country":"us","phone":"518-455-3265","fax":"518-426-6739","otherPhone":"","additional":"","latitude":42.652442,"longitude":-73.759332},{"name":"District Office","street":"151 Herricks Road, Suite 202","city":"Garden City Park","postalCode":"11040","provinceName":"New York","province":"NY","countryName":"United States","country":"us","phone":"516-746-5924","fax":"516-746-0439","otherPhone":"","additional":"","latitude":40.741138,"longitude":-73.655597}],"district":{"number":7,"url":"http://www.nysenate.gov/district/07","imageUrl":"http://www.nysenate.gov/files/SD7.png","mapUrl":"http://geo.nysenate.gov/maps/regular.jsp?x=850&y=595&sd=07"},"social":{"twitter":"http://twitter.com/senatormartins","youtube":"","myspace":"","picasa":"","flickr":"","facebook":"http://www.facebook.com/pages/Senator-Jack-Martins/183072338380420?ref=ts&v=wall"}},{"name":"George D. Maziarz","lastName":"Maziarz","shortName":"maziarz","email":"maziarz@nysenate.gov","additionalContact":"","imageUrl":"http://www.nysenate.gov/files/profile-pictures/SD62_Maziarz_0.jpg","url":"http://www.nysenate.gov/senator/george-d-maziarz","partyAffiliations":["R"],"offices":[{"name":"Albany Office","street":"Room 708,","city":"Albany","postalCode":"12247","provinceName":"New York","province":"NY","countryName":"United States","country":"us","phone":"(518) 455-2024","fax":"","otherPhone":"","additional":"Legislative Office Building","latitude":40.656868,"longitude":-73.939644},{"name":"District Office","street":"175 Walnut St.,","city":"Lockport","postalCode":"14094","provinceName":"New York","province":"NY","countryName":"United States","country":"us","phone":"(716) 434-0680","fax":"(716) 434-3297","otherPhone":"","additional":"Suite 6","latitude":43.169358,"longitude":-78.690893},{"name":"Satellite Office","street":"350 New Campus Dr.,","city":"Brockport","postalCode":"14420","provinceName":"New York","province":"NY","countryName":"United States","country":"us","phone":"(585) 637-5800","fax":"","otherPhone":"","additional":"SUNY College at Brockport","latitude":43.209472,"longitude":-77.957285}],"district":{"number":62,"url":"http://www.nysenate.gov/district/62","imageUrl":"http://www.nysenate.gov/files/sd62.jpg","mapUrl":"http://geo.nysenate.gov/maps/regular.jsp?x=850&y=595&sd=62"},"social":{"twitter":"http://twitter.com/senatormaziarz","youtube":"","myspace":"","picasa":"","flickr":"","facebook":"http://www.facebook.com/pages/George-D-Maziarz/110844998935922"}},{"name":"Velmanette Montgomery","lastName":"Montgomery","shortName":"montgomery","email":"montgome@senate.state.ny.us","additionalContact":"","imageUrl":"http://www.nysenate.gov/files/profile-pictures/headshot.jpg","url":"http://www.nysenate.gov/senator/velmanette-montgomery","partyAffiliations":["D"],"offices":[{"name":"Albany Office","street":"944 Legislative Office Building","city":"Albany","postalCode":"12247","provinceName":"New York","province":"NY","countryName":"United States","country":"us","phone":"(518) 455-3451","fax":"(518) 426-6854","otherPhone":"","additional":"","latitude":42.652442,"longitude":-73.759332},{"name":"District Office","street":"30 Third Avenue","city":"Brooklyn","postalCode":"11217","provinceName":"New York","province":"NY","countryName":"United States","country":"us","phone":"(718) 643-6140","fax":"(718) 237-4137","otherPhone":"","additional":"","latitude":40.686028,"longitude":-73.980247}],"district":{"number":25,"url":"http://www.nysenate.gov/district/25","imageUrl":"http://www.nysenate.gov/files/Untitled-25.jpg","mapUrl":"http://geo.nysenate.gov/maps/regular.jsp?x=850&y=595&sd=25"},"social":{"twitter":"","youtube":"","myspace":"","picasa":"","flickr":"","facebook":"http://www.facebook.com/pages/New-York-State-Senator-Velmanette-Montgomery/103064926679"}},{"name":"Michael F. Nozzolio","lastName":"Nozzolio","shortName":"nozzolio","email":"nozzolio@senate.state.ny.us","additionalContact":"<P>&nbsp;</P>\n<P>THE CONTACT FORM BELOW IS TEMPORARILY OFFLINE. UNTIL IT IS FIXED, PLEASE EMAIL ME DIRECTLY AT <A href=\"mailto:nozzolio@nysenate.gov\">nozzolio@nysenate.gov</A>.</P>","imageUrl":"http://www.nysenate.gov/files/profile-pictures/2.jpg","url":"http://www.nysenate.gov/senator/michael-f-nozzolio","partyAffiliations":["R","C","IP"],"offices":[{"name":"Albany Office","street":"188 State Street,","city":"Albany","postalCode":"12247","provinceName":"New York","province":"NY","countryName":"United States","country":"us","phone":"(518) 455-2366","fax":"(518) 426-6953","otherPhone":"","additional":"Room 503, Capitol Building","latitude":42.652894,"longitude":-73.759161},{"name":"District Office","street":"119 Fall Street","city":"Seneca Falls","postalCode":"13148","provinceName":"New York","province":"NY","countryName":"United States","country":"us","phone":"(315) 568-9816","fax":"(315) 568-2090","otherPhone":"Toll-free 1-888-568-9816","additional":"","latitude":42.910497,"longitude":-76.798896}],"district":{"number":54,"url":"http://www.nysenate.gov/district/54","imageUrl":"http://www.nysenate.gov/files/district_54.png","mapUrl":"http://geo.nysenate.gov/maps/regular.jsp?x=850&y=595&sd=54"},"social":{"twitter":"","youtube":"","myspace":"","picasa":"","flickr":"","facebook":""}},{"name":"Ted O'Brien","lastName":"O'Brien","shortName":"obrien","email":"obrien@nysenate.gov","additionalContact":"","imageUrl":"http://www.nysenate.gov/files/profile-pictures/(12-10-12) O'Brien-HS-008.jpg","url":"http://www.nysenate.gov/senator/ted-obrien","partyAffiliations":["D","WF"],"offices":[{"name":"Albany Office","street":"Legislative Office Building,","city":"Albany","postalCode":"12247","provinceName":"New York","province":"NY","countryName":"United States","country":"us","phone":"(518) 455-2162","fax":"(518) 426-6925","otherPhone":"","additional":"Room 302","latitude":42.652442,"longitude":-73.759332},{"name":"Temporary District Office","street":"220 Packetts Landing","city":"Fairport","postalCode":"14450","provinceName":"New York","province":"NY","countryName":"United States","country":"us","phone":"(585) 223-1800","fax":"(585) 223-3084","otherPhone":"","additional":"","latitude":43.100444,"longitude":-77.439932}],"district":{"number":55,"url":"http://www.nysenate.gov/district/55","imageUrl":"http://www.nysenate.gov/files/district_55.png","mapUrl":"http://geo.nysenate.gov/maps/regular.jsp?x=850&y=595&sd=55"},"social":{"twitter":"http://www.twitter.com/SenTedOBrien","youtube":"","myspace":"","picasa":"","flickr":"","facebook":"http://www.facebook.com/SenatorTedOBrien"}},{"name":"Thomas F. O'Mara","lastName":"O'Mara","shortName":"omara","email":"omara@nysenate.gov","additionalContact":"","imageUrl":"http://www.nysenate.gov/files/profile-pictures/(01-11-11) O'Mara-011_0.jpg","url":"http://www.nysenate.gov/senator/thomas-f-omara","partyAffiliations":["R","C"],"offices":[{"name":"District Office","street":"333 East Water Street","city":"Elmira","postalCode":"14901","provinceName":"New York","province":"NY","countryName":"United States","country":"us","phone":"607-735-9671","fax":"607-735-9675","otherPhone":"","additional":"(3rd Floor, Suite 301)","latitude":42.088315,"longitude":-76.801676},{"name":"Satellite Office","street":"105 East Steuben Street","city":"Bath","postalCode":"14810","provinceName":"New York","province":"NY","countryName":"United States","country":"us","phone":"607-776-3201","fax":"607-776-5185","otherPhone":"","additional":"","latitude":42.333904,"longitude":-77.3151},{"name":"Albany Office","street":"Legislative Office Building","city":"Albany","postalCode":"12247","provinceName":"New York","province":"NY","countryName":"United States","country":"us","phone":"518-455-2091","fax":"518-426-6976","otherPhone":"","additional":"Room 812","latitude":42.652442,"longitude":-73.759332}],"district":{"number":58,"url":"http://www.nysenate.gov/district/58","imageUrl":"http://www.nysenate.gov/files/district_58.png","mapUrl":"http://geo.nysenate.gov/maps/regular.jsp?x=850&y=595&sd=58"},"social":{"twitter":"","youtube":"","myspace":"","picasa":"","flickr":"","facebook":"http://www.facebook.com/pages/New-York-State-Senator-Tom-OMara/151463428240765?"}},{"name":"Kevin S. Parker","lastName":"Parker","shortName":"parker","email":"parker@senate.state.ny.us","additionalContact":"","imageUrl":"http://www.nysenate.gov/files/profile-pictures/Parker2007Biography.jpg","url":"http://www.nysenate.gov/senator/kevin-s-parker","partyAffiliations":["D","WF"],"offices":[{"name":"Albany Office","street":"188 State Street","city":"Albany","postalCode":"12247","provinceName":"New York","province":"NY","countryName":"United States","country":"us","phone":"(518) 455-2580","fax":"(518) 426-6843","otherPhone":"","additional":"Room 604, Legislative Office Building","latitude":42.652855,"longitude":-73.759091},{"name":"District Office","street":"1300 Flatbush Avenue","city":"Brooklyn","postalCode":"11210","provinceName":"New York","province":"NY","countryName":"United States","country":"us","phone":"(718) 629-6401","fax":"(718) 629-6420","otherPhone":"","additional":"","latitude":40.638249,"longitude":-73.953696}],"district":{"number":21,"url":"http://www.nysenate.gov/district/21","imageUrl":"http://www.nysenate.gov/files/sd21.jpg","mapUrl":"http://geo.nysenate.gov/maps/regular.jsp?x=850&y=595&sd=21"},"social":{"twitter":"","youtube":"","myspace":"","picasa":"","flickr":"","facebook":"http://www.facebook.com/pages/Senator-Kevin-Parker/24988756132?ref=sgm"}},{"name":"Jos√© Peralta","lastName":"Peralta","shortName":"peralta","email":"jperalta@nysenate.gov","additionalContact":"","imageUrl":"http://www.nysenate.gov/files/profile-pictures/Jose Peralta MAIN-Senate headshot.JPG","url":"http://www.nysenate.gov/senator/jose-peralta","partyAffiliations":["D","WF"],"offices":[{"name":"Albany Office","street":"188 State Street","city":"Albany","postalCode":"12247","provinceName":"New York","province":"NY","countryName":"United States","country":"us","phone":"(518) 455-2529","fax":"(518) 426-6909","otherPhone":"","additional":"Room 415, Legislative Office Building","latitude":42.652855,"longitude":-73.759091},{"name":"District Office","street":"32-37 Junction Boulevard","city":"East Elmhurst","postalCode":"11369","provinceName":"New York","province":"NY","countryName":"United States","country":"us","phone":"(718) 205-3881","fax":"(718) 205-4145","otherPhone":"","additional":"","latitude":40.757648,"longitude":-73.873752}],"district":{"number":13,"url":"http://www.nysenate.gov/district/13","imageUrl":"http://www.nysenate.gov/files/sd13.jpg","mapUrl":"http://geo.nysenate.gov/maps/regular.jsp?x=850&y=595&sd=13"},"social":{"twitter":"http://twitter.com/SenatorPeralta","youtube":"http://www.youtube.com/user/SenatorJosePeralta","myspace":"","picasa":"","flickr":"","facebook":"http://www.facebook.com/SenatorPeralta"}},{"name":"Bill Perkins","lastName":"Perkins","shortName":"perkins","email":"perkins@senate.state.ny.us","additionalContact":"","imageUrl":"http://www.nysenate.gov/files/profile-pictures/(02-05-09) Perkins-HS-004_0.jpg","url":"http://www.nysenate.gov/senator/bill-perkins","partyAffiliations":["D","WF"],"offices":[{"name":"Albany Office","street":"188 State Street","city":"Albany","postalCode":"12247","provinceName":"New York","province":"NY","countryName":"United States","country":"us","phone":"518-455-2441","fax":"518-426-6809","otherPhone":"","additional":"Room 517, Legislative Office Building","latitude":42.652855,"longitude":-73.759091},{"name":"District Office","street":"163 West 125th Street","city":"New York","postalCode":"10027","provinceName":"New York","province":"NY","countryName":"United States","country":"us","phone":"212-222-7315","fax":"212-678-0001","otherPhone":"","additional":"Harlem State Office Bldg., Suite 912","latitude":40.808488,"longitude":-73.947151}],"district":{"number":30,"url":"http://www.nysenate.gov/district/30","imageUrl":"http://www.nysenate.gov/files/Untitled-30.jpg","mapUrl":"http://geo.nysenate.gov/maps/regular.jsp?x=850&y=595&sd=30"},"social":{"twitter":"","youtube":"","myspace":"","picasa":"","flickr":"","facebook":"http://www.facebook.com/pages/Senator-Bill-Perkins-Official/144810748868643?ref=ts"}},{"name":"Michael H. Ranzenhofer","lastName":"Ranzenhofer","shortName":"ranzenhofer","email":"ranz@senate.state.ny.us","additionalContact":"","imageUrl":"http://www.nysenate.gov/files/profile-pictures/hs.jpg","url":"http://www.nysenate.gov/senator/michael-h-ranzenhofer","partyAffiliations":["R","C","IP"],"offices":[{"name":"Albany Office","street":"188 State Street","city":"Albany","postalCode":"12247","provinceName":"New York","province":"NY","countryName":"United States","country":"us","phone":"(518) 455-3161","fax":"(518) 426-6963","otherPhone":"","additional":"Room 848, Legislative Office Building","latitude":42.652855,"longitude":-73.759091},{"name":"District Office","street":"8203 Main Street","city":"Williamsville","postalCode":"14221","provinceName":"New York","province":"NY","countryName":"United States","country":"us","phone":"(716) 631-8695","fax":"(716) 634-4321","otherPhone":"","additional":"Suite 4","latitude":42.962848,"longitude":-78.68881}],"district":{"number":61,"url":"http://www.nysenate.gov/district/61","imageUrl":"http://www.nysenate.gov/files/Screen Shot 2013-01-02 at 3.33.34 PM.png","mapUrl":"http://geo.nysenate.gov/maps/regular.jsp?x=850&y=595&sd=61"},"social":{"twitter":"","youtube":"","myspace":"","picasa":"","flickr":"","facebook":"http://www.facebook.com/people/Mike-Ranzenhofer/1477429982"}},{"name":"Patty Ritchie","lastName":"Ritchie","shortName":"ritchie","email":"ritchie@nysenate.gov","additionalContact":"","imageUrl":"http://www.nysenate.gov/files/profile-pictures/ritchie_web.jpg","url":"http://www.nysenate.gov/senator/patty-ritchie","partyAffiliations":["R"],"offices":[{"name":"District Office","street":"Dulles State Office Building, Room 418","city":"Watertown","postalCode":"13601","provinceName":"New York","province":"NY","countryName":"United States","country":"us","phone":"315-782-3418","fax":"315-782-6357","otherPhone":"","additional":"","latitude":43.974784,"longitude":-75.910757},{"name":"Albany Office","street":"Legislative Office Building, Room 412","city":"Albany","postalCode":"12247","provinceName":"New York","province":"NY","countryName":"United States","country":"us","phone":"518-455-3438","fax":"518-426-6740","otherPhone":"","additional":"","latitude":42.652442,"longitude":-73.759332},{"name":"District Office","street":"46 East Bridge St., 1st Floor","city":"Oswego","postalCode":"13126","provinceName":"New York","province":"NY","countryName":"United States","country":"us","phone":"(315) 342-2057","fax":"","otherPhone":"","additional":"","latitude":43.455778,"longitude":-76.512971},{"name":"District Office","street":"330 Ford St.","city":"Ogdensburg","postalCode":"13669","provinceName":"New York","province":"NY","countryName":"United States","country":"us","phone":"(315) 393-3024","fax":"","otherPhone":"","additional":"(basement of City Hall)","latitude":44.698385,"longitude":-75.492149}],"district":{"number":48,"url":"http://www.nysenate.gov/district/48","imageUrl":"http://www.nysenate.gov/files/district_48.png","mapUrl":"http://geo.nysenate.gov/maps/regular.jsp?x=850&y=595&sd=48"},"social":{"twitter":"","youtube":"","myspace":"","picasa":"","flickr":"","facebook":"http://www.facebook.com/pages/State-Senator-Patty-Ritchie/186489928057565"}},{"name":"Gustavo Rivera","lastName":"Rivera","shortName":"rivera","email":"grivera@nysenate.gov","additionalContact":"<P>The Office s open Monday through Friday 10 a.m. to 6 p.m.&nbsp;</P>\n<P>Constituent Service hours are on Monday through Thursday from 12 pm to 4 pm&nbsp;</P>","imageUrl":"http://www.nysenate.gov/files/profile-pictures/New Official Photo.JPG","url":"http://www.nysenate.gov/senator/gustavo-rivera","partyAffiliations":["D","WF"],"offices":[{"name":"Albany Office","street":"181 State Street,","city":"Albany","postalCode":"12247","provinceName":"New York","province":"NY","countryName":"United States","country":"us","phone":"518-455-3395","fax":"518-426-6858","otherPhone":"","additional":"Room 408 LOB","latitude":42.652811,"longitude":-73.758947},{"name":"District Office","street":"2432 Grand Concourse,","city":"Bronx","postalCode":"10458","provinceName":"New York","province":"NY","countryName":"United States","country":"us","phone":"718-933-2034","fax":"718-933-2825","otherPhone":"","additional":"Suite 506","latitude":40.860504,"longitude":-73.897833}],"district":{"number":33,"url":"http://www.nysenate.gov/district/33","imageUrl":"http://www.nysenate.gov/files/Untitled-33_0.jpg","mapUrl":"http://geo.nysenate.gov/maps/regular.jsp?x=850&y=595&sd=33"},"social":{"twitter":"twitter.com/NYSenatorRivera","youtube":"","myspace":"","picasa":"","flickr":"","facebook":"http://www.facebook.com/pages/Hon-Gustavo-Rivera/168425229855372"}},{"name":"Joseph E. Robach","lastName":"Robach","shortName":"robach","email":"robach@nysenate.gov","additionalContact":"","imageUrl":"http://www.nysenate.gov/files/profile-pictures/SD56_RobachHS.jpg","url":"http://www.nysenate.gov/senator/joseph-e-robach","partyAffiliations":["R","C","IP"],"offices":[{"name":"Albany Office","street":"188 State Steet","city":"Albany","postalCode":"12247","provinceName":"New York","province":"NY","countryName":"United States","country":"us","phone":"(518) 455-2909","fax":"","otherPhone":"","additional":"Room 803, Legislative Office Building","latitude":42.652855,"longitude":-73.759091},{"name":"District Office","street":"2300 W. Ridge Road","city":"Rochester","postalCode":"14626","provinceName":"New York","province":"NY","countryName":"United States","country":"us","phone":"(585) 225-3650","fax":"","otherPhone":"","additional":"","latitude":43.209487,"longitude":-77.688661}],"district":{"number":56,"url":"http://www.nysenate.gov/district/56","imageUrl":"http://www.nysenate.gov/files/district_56.png","mapUrl":"http://geo.nysenate.gov/maps/regular.jsp?x=850&y=595&sd=56"},"social":{"twitter":"https://twitter.com/SenatorRobach","youtube":"http://www.youtube.com/user/JoeRobach","myspace":"","picasa":"","flickr":"","facebook":"https://www.facebook.com/senatorjosepherobach"}},{"name":"John L. Sampson","lastName":"Sampson","shortName":"sampson","email":"sampson@senate.state.ny.us","additionalContact":"","imageUrl":"http://www.nysenate.gov/files/profile-pictures/webphoto1.jpg","url":"http://www.nysenate.gov/senator/john-l-sampson","partyAffiliations":["D","WF"],"offices":[{"name":"Albany Office","street":"188 State Street","city":"Albany","postalCode":"12247","provinceName":"New York","province":"NY","countryName":"United States","country":"us","phone":"(518) 455-2788","fax":"(518) 426-6806","otherPhone":"","additional":"Room 808, Legislative Office Building","latitude":42.652894,"longitude":-73.759161},{"name":"District Office","street":"1222  East 96th Street","city":"Brooklyn","postalCode":"11236","provinceName":"New York","province":"NY","countryName":"United States","country":"us","phone":"(718) 649-7653","fax":"(718) 649-7661","otherPhone":"","additional":"","latitude":40.64166,"longitude":-73.900138}],"district":{"number":19,"url":"http://www.nysenate.gov/district/19","imageUrl":"http://www.nysenate.gov/files/sd19.jpg","mapUrl":"http://geo.nysenate.gov/maps/regular.jsp?x=850&y=595&sd=19"},"social":{"twitter":"","youtube":"","myspace":"","picasa":"","flickr":"","facebook":""}},{"name":"James Sanders Jr.","lastName":"Sanders","shortName":"sanders","email":"sanders@nysenate.gov","additionalContact":"","imageUrl":"http://www.nysenate.gov/files/profile-pictures/(12-10-12) Sanders-HS-010.jpg","url":"http://www.nysenate.gov/senator/james-sanders-jr","partyAffiliations":["D"],"offices":[{"name":"District Office","street":"161-10 Jamaica Avenue,","city":"Jamaica,","postalCode":"11432","provinceName":"New York","province":"NY","countryName":"United States","country":"us","phone":"718-523-3069","fax":"","otherPhone":"","additional":"Suite 504","latitude":40.70364,"longitude":-73.797826},{"name":"Albany Office","street":"Legislative Office Building","city":"Albany","postalCode":"12247","provinceName":"New York","province":"NY","countryName":"United States","country":"us","phone":"518-455-3531","fax":"","otherPhone":"","additional":"Room 508","latitude":42.652442,"longitude":-73.759332}],"district":{"number":10,"url":"http://www.nysenate.gov/district/10","imageUrl":"http://www.nysenate.gov/files/SD10.png","mapUrl":"http://geo.nysenate.gov/maps/regular.jsp?x=850&y=595&sd=10"},"social":{"twitter":"","youtube":"","myspace":"","picasa":"","flickr":"","facebook":""}},{"name":"Diane J. Savino","lastName":"Savino","shortName":"savino","email":"savino@senate.state.ny.us","additionalContact":"","imageUrl":"http://www.nysenate.gov/files/profile-pictures/(03-03-09) Savino-HS-019.jpg","url":"http://www.nysenate.gov/senator/diane-j-savino","partyAffiliations":["D","IP","WF"],"offices":[{"name":"Albany Office","street":"188 State Street","city":"Albany","postalCode":"12247","provinceName":"New York","province":"NY","countryName":"United States","country":"us","phone":"(518) 455-2437","fax":"(518) 426-6943","otherPhone":"","additional":"Room 315, Legislative Office Building","latitude":42.652855,"longitude":-73.759091},{"name":"District Office","street":"36 Richmond Terrace","city":"Staten Island","postalCode":"10301","provinceName":"New York","province":"NY","countryName":"United States","country":"us","phone":"(718) 727-9406","fax":"(718) 727-9426","otherPhone":"","additional":"Suite 112","latitude":40.643568,"longitude":-74.076587},{"name":"District Office 2","street":"2872 West 15th Street","city":"Brooklyn","postalCode":"11224-2602","provinceName":"New York","province":"NY","countryName":"United States","country":"us","phone":"(718) 333-0311","fax":"(347) 492-3263","otherPhone":"","additional":"","latitude":40.57742,"longitude":-73.982775}],"district":{"number":23,"url":"http://www.nysenate.gov/district/23","imageUrl":"http://www.nysenate.gov/files/sd23.jpg","mapUrl":"http://geo.nysenate.gov/maps/regular.jsp?x=850&y=595&sd=23"},"social":{"twitter":"","youtube":"","myspace":"","picasa":"","flickr":"http://www.flickr.com/photos/senatorsavino/","facebook":""}},{"name":"Jos√© M. Serrano","lastName":"Serrano","shortName":"serrano","email":"serrano@senate.state.ny.us","additionalContact":"","imageUrl":"http://www.nysenate.gov/files/profile-pictures/serranoheadshot.JPG","url":"http://www.nysenate.gov/senator/jose-m-serrano","partyAffiliations":["D","WF"],"offices":[{"name":"Albany Office","street":"181 State Street","city":"Albany","postalCode":"12247","provinceName":"New York","province":"NY","countryName":"United States","country":"us","phone":"(518) 455-2795","fax":"(518) 426-6886","otherPhone":"","additional":"Room 406, Legislative Office Building","latitude":42.652811,"longitude":-73.758948},{"name":"District Office","street":"157 East 104th Street","city":"New York","postalCode":"10029","provinceName":"New York","province":"NY","countryName":"United States","country":"us","phone":"(212)-828-5829","fax":"(212)-828-2420","otherPhone":"","additional":"(Ground Level)","latitude":40.790942,"longitude":-73.946631}],"district":{"number":29,"url":"http://www.nysenate.gov/district/29","imageUrl":"http://www.nysenate.gov/files/Untitled-29.jpg","mapUrl":"http://geo.nysenate.gov/maps/regular.jsp?x=850&y=595&sd=29"},"social":{"twitter":"http://twitter.com/senatorserrano","youtube":"www.youtube.com/senatorserrano","myspace":"","picasa":"","flickr":"","facebook":"http://www.facebook.com/pages/New-York-State-Senator-Serrano/134976763347?v=info"}},{"name":"James L. Seward","lastName":"Seward","shortName":"seward","email":"seward@nysenate.gov","additionalContact":"","imageUrl":"http://www.nysenate.gov/files/profile-pictures/2009 Sen Seward Head Shot.jpg","url":"http://www.nysenate.gov/senator/james-l-seward","partyAffiliations":["R","C","IP"],"offices":[{"name":"Albany Office","street":"172 State Street","city":"Albany","postalCode":"12247","provinceName":"New York","province":"NY","countryName":"United States","country":"us","phone":"518) 455-3131","fax":"","otherPhone":"","additional":"Room 430, Capital","latitude":42.652133,"longitude":-73.757823},{"name":"District Office","street":"41 So. Main Street","city":"Oneonta","postalCode":"13820","provinceName":"New York","province":"NY","countryName":"United States","country":"us","phone":"(607) 432-5524","fax":"","otherPhone":"","additional":"","latitude":42.454105,"longitude":-75.060446},{"name":"District Office 2","street":"235 N. Prospect Street","city":"Herkimer","postalCode":"13350","provinceName":"New York","province":"NY","countryName":"United States","country":"us","phone":"(315) 866-1632","fax":"","otherPhone":"","additional":"","latitude":43.026787,"longitude":-74.989896},{"name":"District Office 3","street":"4030 West Road","city":"Cortland","postalCode":"13045","provinceName":"New York","province":"NY","countryName":"United States","country":"us","phone":"(607) 758-9005","fax":"","otherPhone":"","additional":"","latitude":42.602244,"longitude":-76.201681}],"district":{"number":51,"url":"http://www.nysenate.gov/district/51","imageUrl":"http://www.nysenate.gov/files/district_51.png","mapUrl":"http://geo.nysenate.gov/maps/regular.jsp?x=850&y=595&sd=51"},"social":{"twitter":"","youtube":"http://www.youtube.com/user/SenJimSeward","myspace":"","picasa":"","flickr":"","facebook":"http://www.facebook.com/senatorjimseward"}},{"name":"Dean G. Skelos","lastName":"Skelos","shortName":"skelos","email":"skelos@nysenate.gov","additionalContact":"","imageUrl":"http://www.nysenate.gov/files/profile-pictures/SD9_Skelos_4.jpg","url":"http://www.nysenate.gov/senator/dean-g-skelos","partyAffiliations":["R","C","IP"],"offices":[{"name":"Albany Office","street":"Legislative Office Building, Room 909","city":"Albany","postalCode":"12247","provinceName":"New York","province":"NY","countryName":"United States","country":"us","phone":"(518) 455-3171","fax":"","otherPhone":"","additional":"","latitude":42.652442,"longitude":-73.759332},{"name":"District Office","street":"55 Front Street","city":"Rockville Centre","postalCode":"11570","provinceName":"New York","province":"NY","countryName":"United States","country":"us","phone":"(516) 766-8383","fax":"","otherPhone":"","additional":"","latitude":40.658701,"longitude":-73.645298}],"district":{"number":9,"url":"http://www.nysenate.gov/district/09","imageUrl":"http://www.nysenate.gov/files/SD9.png","mapUrl":"http://geo.nysenate.gov/maps/regular.jsp?x=850&y=595&sd=09"},"social":{"twitter":"","youtube":"","myspace":"","picasa":"","flickr":"","facebook":""}},{"name":"Malcolm A. Smith","lastName":"Smith","shortName":"smith","email":"masmith@senate.state.ny.us","additionalContact":"","imageUrl":"http://www.nysenate.gov/files/profile-pictures/Smith-HS-024.jpg","url":"http://www.nysenate.gov/senator/malcolm-smith","partyAffiliations":["D","WF"],"offices":[{"name":"Albany Office","street":"181 State Street","city":"Albany","postalCode":"12247","provinceName":"New York","province":"NY","countryName":"United States","country":"us","phone":"(518) 455-2701","fax":"(518) 455-2816","otherPhone":"","additional":"Room 808, Legislative Office Building","latitude":42.652811,"longitude":-73.758947},{"name":"District Office ","street":"205-20 Jamaica Ave.","city":"Hollis","postalCode":"11423","provinceName":"New York","province":"NY","countryName":"United States","country":"us","phone":"(718) 454-0162","fax":"(718) 454-0186","otherPhone":"","additional":"","latitude":40.713498,"longitude":-73.754234},{"name":"","street":"","city":"","postalCode":"","provinceName":"","province":"","countryName":"United States","country":"us","phone":"","fax":"","otherPhone":"","additional":"","latitude":0.0,"longitude":0.0}],"district":{"number":14,"url":"http://www.nysenate.gov/district/14","imageUrl":"http://www.nysenate.gov/files/sd14.jpg","mapUrl":"http://geo.nysenate.gov/maps/regular.jsp?x=850&y=595&sd=14"},"social":{"twitter":"http://twitter.com/malcolmasmith","youtube":"","myspace":"","picasa":"","flickr":"","facebook":"http://www.facebook.com/pages/Malcolm-A-Smith/74081452742"}},{"name":"Daniel L. Squadron","lastName":"Squadron","shortName":"squadron","email":"squadron@nysenate.gov","additionalContact":"<p><strong>Press inquiries?</strong><br>Contact Senator Squadron's Communications Director, Amy Spitalnick, at 212-298-5565 or spitalni@nysenate.gov. <a href=\"http://www.nysenate.gov/webform/join-senator-squadrons-press-list\" target=\"_blank\">Click here to join Senator Squadron's press list</a>.</p>","imageUrl":"http://www.nysenate.gov/files/profile-pictures/(03-05-09) Squadron HS-040.jpg","url":"http://www.nysenate.gov/senator/daniel-l-squadron","partyAffiliations":["D"],"offices":[{"name":"Albany Office","street":"188 State Street","city":"Albany","postalCode":"12247","provinceName":"New York","province":"NY","countryName":"United States","country":"us","phone":"518-455-2625","fax":"518-426-6956","otherPhone":"","additional":"Room 515, Legislative Office Building","latitude":42.652855,"longitude":-73.759091},{"name":"District Office","street":"250 Broadway","city":"New York","postalCode":"10007","provinceName":"New York","province":"NY","countryName":"United States","country":"us","phone":"212-298-5565","fax":"212-431-7836","otherPhone":"","additional":"Suite 2011","latitude":40.712895,"longitude":-74.007527},{"name":"District Office 2","street":"209 Joralemon Street","city":"Brooklyn","postalCode":"11201","provinceName":"New York","province":"NY","countryName":"United States","country":"us","phone":"718-875-1517","fax":"","otherPhone":"","additional":"Borough Hall, Room 310","latitude":40.692681,"longitude":-73.990215}],"district":{"number":26,"url":"http://www.nysenate.gov/district/26","imageUrl":"http://www.nysenate.gov/files/Untitled-26.jpg","mapUrl":"http://geo.nysenate.gov/maps/regular.jsp?x=850&y=595&sd=26"},"social":{"twitter":"http://www.twitter.com/danielsquadron","youtube":"","myspace":"","picasa":"","flickr":"","facebook":"https://www.facebook.com/DanielSquadron"}},{"name":"Toby Ann Stavisky","lastName":"Stavisky","shortName":"stavisky","email":"stavisky@senate.state.ny.us","additionalContact":"","imageUrl":"http://www.nysenate.gov/files/profile-pictures/Official Website Headshot_0.jpg","url":"http://www.nysenate.gov/senator/toby-ann-stavisky","partyAffiliations":["D"],"offices":[{"name":"Albany Office","street":"188 State Street","city":"Albany","postalCode":"12247","provinceName":"New York","province":"NY","countryName":"United States","country":"us","phone":"(518) 455-3461","fax":"(518) 426-6857","otherPhone":"","additional":"Room 706, Legislative Office Building","latitude":42.652855,"longitude":-73.759091},{"name":"District Office","street":"144-36 Willets Point Boulevard","city":"Flushing","postalCode":"11357","provinceName":"New York","province":"NY","countryName":"United States","country":"us","phone":"(718) 445-0004","fax":"(718) 445-8398","otherPhone":"","additional":"","latitude":40.77654,"longitude":-73.822853}],"district":{"number":16,"url":"http://www.nysenate.gov/district/16","imageUrl":"http://www.nysenate.gov/files/sd16.jpg","mapUrl":"http://geo.nysenate.gov/maps/regular.jsp?x=850&y=595&sd=16"},"social":{"twitter":"","youtube":"","myspace":"","picasa":"","flickr":"","facebook":"http://www.facebook.com/pages/Toby-Ann-Stavisky/142077753628?ref=ts"}},{"name":"Andrea Stewart-Cousins","lastName":"Stewart-Cousins","shortName":"stewartcousins","email":"scousins@senate.state.ny.us","additionalContact":"","imageUrl":"http://www.nysenate.gov/files/profile-pictures/(03-09-09) Stewart-Cousins HS-016.jpg","url":"http://www.nysenate.gov/senator/andrea-stewart-cousins","partyAffiliations":["D","IP","WF"],"offices":[{"name":"Albany Office","street":"188 State Street","city":"Albany","postalCode":"12247","provinceName":"New York","province":"NY","countryName":"United States","country":"us","phone":"(518) 455-2585","fax":"(518) 426-6811","otherPhone":"","additional":"Room 907, Legislative Office Building","latitude":42.668971,"longitude":-73.78689},{"name":"District Office","street":"28 Wells Avenue","city":"Yonkers","postalCode":"10701","provinceName":"New York","province":"NY","countryName":"United States","country":"us","phone":"(914) 423-4031","fax":"(914) 423-0979","otherPhone":"","additional":"Building 3","latitude":40.936519,"longitude":-73.899986},{"name":"","street":"","city":"","postalCode":"","provinceName":"New York","province":"NY","countryName":"United States","country":"us","phone":"","fax":"","otherPhone":"","additional":"","latitude":0.0,"longitude":0.0}],"district":{"number":35,"url":"http://www.nysenate.gov/district/35","imageUrl":"http://www.nysenate.gov/files/Screen Shot 2013-01-02 at 4.00.56 PM.png","mapUrl":"http://geo.nysenate.gov/maps/regular.jsp?x=850&y=595&sd=35"},"social":{"twitter":"","youtube":"","myspace":"","picasa":"","flickr":"http://www.flickr.com/photos/andreastewartcousins/","facebook":"http://www.facebook.com/pages/Andrea-Stewart-Cousins/24808277897"}},{"name":"Cecilia Tkaczyk","lastName":"Tkaczyk","shortName":"tkaczyk","email":"tkaczyk@nysenate.gov","additionalContact":"","imageUrl":"http://www.nysenate.gov/files/profile-pictures/(12-10-12) Tkaczyk-HS-009.jpg","url":"http://www.nysenate.gov/senator/cecilia-tkaczyk","partyAffiliations":["D"],"offices":[{"name":"Albany Office","street":"311 Legislative Office Building","city":"Albany","postalCode":"12247","provinceName":"New York","province":"NY","countryName":"United States","country":"us","phone":"518-455-2470","fax":"","otherPhone":"","additional":"Empire State Plaza","latitude":42.652442,"longitude":-73.759332}],"district":{"number":46,"url":"http://www.nysenate.gov/district/46","imageUrl":"http://www.nysenate.gov/files/district_46.png","mapUrl":"http://geo.nysenate.gov/maps/regular.jsp?x=850&y=595&sd=46"},"social":{"twitter":"http://twitter.com/SenTkaczyk","youtube":"","myspace":"","picasa":"","flickr":"","facebook":"http://www.facebook.com/pages/Senator-Cecilia-Tkaczyk/296566983798700"}},{"name":"David J. Valesky","lastName":"Valesky","shortName":"valesky","email":"valesky@nysenate.gov","additionalContact":"","imageUrl":"http://www.nysenate.gov/files/profile-pictures/Valesky-HSmp.jpg","url":"http://www.nysenate.gov/senator/david-j-valesky","partyAffiliations":["D","IP","WF"],"offices":[{"name":"Albany Office","street":"172 State Street","city":"Albany","postalCode":"12247","provinceName":"New York","province":"NY","countryName":"United States","country":"us","phone":"(518)-455-2838","fax":"(518)-426-6885","otherPhone":"","additional":"LOB Room 512","latitude":42.652228,"longitude":-73.757982},{"name":"District Office","street":"333 East Washington Street","city":"Syracuse","postalCode":"13202","provinceName":"New York","province":"NY","countryName":"United States","country":"us","phone":"(315)-478-8745","fax":"(315)-474-3804","otherPhone":"","additional":"805 State Office Building","latitude":43.049535,"longitude":-76.148372}],"district":{"number":53,"url":"http://www.nysenate.gov/district/53","imageUrl":"http://www.nysenate.gov/files/district_53.png","mapUrl":"http://geo.nysenate.gov/maps/regular.jsp?x=850&y=595&sd=53"},"social":{"twitter":"","youtube":"","myspace":"","picasa":"","flickr":"","facebook":""}},{"name":"Catharine Young","lastName":"Young","shortName":"young","email":"cyoung@senate.state.ny.us","additionalContact":"","imageUrl":"http://www.nysenate.gov/files/profile-pictures/young headshot-ret.jpg","url":"http://www.nysenate.gov/senator/catharine-young","partyAffiliations":["R","C","Ind"],"offices":[{"name":"Albany Office","street":"188 State Street","city":"Albany","postalCode":"12247","provinceName":"New York","province":"NY","countryName":"United States","country":"us","phone":"(518) 455-3563","fax":"(518) 426-6905","otherPhone":"","additional":"Room 307 Legislative Office Building","latitude":42.652855,"longitude":-73.759091},{"name":"District Office","street":"Westgate Plaza 700 W. State Street","city":"Olean","postalCode":"14760","provinceName":"New York","province":"NY","countryName":"United States","country":"us","phone":"(716) 372-4901","fax":"(716) 372-5740","otherPhone":"Toll free # 1-800-707-0058","additional":"","latitude":42.077777,"longitude":-78.438157},{"name":"Satellite Office","street":"2-6 East 2nd Street","city":"Jamestown","postalCode":"14701","provinceName":"New York","province":"NY","countryName":"United States","country":"us","phone":"(716) 664-4603","fax":"(716) 664-2430","otherPhone":"","additional":"Fenton Building, Suite 302","latitude":42.094917,"longitude":-79.241688}],"district":{"number":57,"url":"http://www.nysenate.gov/district/57","imageUrl":"http://www.nysenate.gov/files/district_57.png","mapUrl":"http://geo.nysenate.gov/maps/regular.jsp?x=850&y=595&sd=57"},"social":{"twitter":"","youtube":"","myspace":"","picasa":"","flickr":"","facebook":""}},{"name":"Lee M. Zeldin","lastName":"Zeldin","shortName":"zeldin","email":"zeldin@nysenate.gov","additionalContact":"<p>For press inquiries contact: Jackie Fiore&nbsp;at 518-455-3570 or&nbsp;fiore@nysenate.gov</p> <p>&nbsp;</p>","imageUrl":"http://www.nysenate.gov/files/profile-pictures/(01-10-11) Zeldin-HS-042.jpg","url":"http://www.nysenate.gov/senator/lee-m-zeldin","partyAffiliations":["R","C","IP"],"offices":[{"name":"District Office","street":"4155 Veterans Highway","city":"Ronkonkoma","postalCode":"11779","provinceName":"New York","province":"NY","countryName":"United States","country":"us","phone":"631-585-0608","fax":"631-585-0858","otherPhone":"","additional":"Suite 5","latitude":40.783241,"longitude":-73.099476},{"name":"Albany Office","street":"Legislative Office Building","city":"Albany","postalCode":"12247","provinceName":"New York","province":"NY","countryName":"United States","country":"us","phone":"518-455-3570","fax":"518-426-6741","otherPhone":"","additional":"Room 802","latitude":42.652442,"longitude":-73.759332},{"name":"District Office","street":"NYS Office Building","city":"Hauppauge","postalCode":"11788","provinceName":"New York","province":"NY","countryName":"United States","country":"us","phone":"631-360-3356","fax":"631-360-3269","otherPhone":"","additional":"","latitude":40.824553,"longitude":-73.218331}],"district":{"number":3,"url":"http://www.nysenate.gov/district/03","imageUrl":"http://www.nysenate.gov/files/sd3.jpg","mapUrl":"http://geo.nysenate.gov/maps/regular.jsp?x=850&y=595&sd=03"},"social":{"twitter":"http://twitter.com/leezeldin","youtube":"","myspace":"","picasa":"","flickr":"","facebook":"http://www.facebook.com/senatorleemzeldin"}}]
